"latitude";"longitude";"Schulnummer";"Schulname";"Schule.PLZ";"Schule.Strasse";"Schule.Hausnr";"Schule.Hausnr.2";"Kennz.Zweigstelle";"Ergebnis"
53.556109;10.054829;3201;"Katholische Schule Hammer Kirche";20535;"Bei der Hammer Kirche";10;"";"keine Zweigstelle";314
53.558109;10.014003;3202;"Domschule St. Marien (Stadtteilschule)";20099;"Schmilinskystraﬂe";70;"";"keine Zweigstelle";263
53.54052;10.10897;3203;"Katholische Schule St. Paulus";22111;"÷jendorfer Weg";14;"";"keine Zweigstelle";646
53.559273;9.95604;3204;"Katholische Schule Altona";22767;"Dohrnweg";6;"";"keine Zweigstelle";298
53.551291;9.924023;3205;"Katholische Schule St. Marien - Eulenstraﬂe";22763;"Eulenstraﬂe";68;"";"keine Zweigstelle";125
53.561709;9.822237;3206;"Katholische Schule Blankenese";22587;"Mˆrikestraﬂe";16;"";"keine Zweigstelle";262
53.57762;9.957595;3207;"Katholische Schule Am Weiher - St. Bonifatius";20255;"Am Weiher";29;"";"keine Zweigstelle";306
53.573469;9.985433;3208;"Katholische Schule Hochallee";20149;"Hochallee";9;"";"keine Zweigstelle";218
53.579295;10.034928;3209;"Katholische Sophienschule";22083;"Elsastraﬂe";46;"";"keine Zweigstelle";277
53.585295;10.055088;3210;"Franz-von-Assisi-Schule";22305;"L‰mmersieth";38;"";"keine Zweigstelle";250
53.59872;9.99651;3211;"Katholische Schule St. Antonius";22299;"Alsterdorfer Straﬂe";71;"";"keine Zweigstelle";308
53.652172;10.014391;3212;"Katharina-von-Siena-Schule";22415;"Eberhofweg";75;"";"keine Zweigstelle";359
53.607218;10.122258;3213;"Katholische Schule Farmsen";22159;"Rahlstedter Weg";15;"";"keine Zweigstelle";427
53.573615;10.076668;3214;"Katholische Schule St. Joseph - Wandsbek";22041;"Bˆhmestraﬂe";3;"";"keine Zweigstelle";232
53.491745;10.215722;3215;"Katholische Schule Bergedorf";21029;"Chrysanderstraﬂe";40;"";"keine Zweigstelle";467
53.457779;9.969987;3216;"Katholische Schule Harburg";21073;"Julius-Ludowieg-Straﬂe";89;"";"keine Zweigstelle";690
53.505052;9.986728;3217;"Katholische Bonifatiusschule";21107;"Bonifatiusstraﬂe";2;"";"keine Zweigstelle";637
53.6167;10.028152;3218;"Bugenhagen-Schule Alsterdorf, Schule f¸r Kinder mit besonderem Fˆrderbedarf";22337;"Alsterdorfer Straﬂe";506;"";"keine Zweigstelle";134
53.557897;10.031287;3219;"Sankt-Ansgar-Schule";20535;"B¸rgerweide";33;"";"keine Zweigstelle";807
53.562184;9.994914;3220;"Sophie-Barat-Schule";20354;"Warburgstraﬂe";39;"";"keine Zweigstelle";923
53.471791;9.845328;3222;"Katholische Schule Neugraben";21149;"Cuxhavener Straﬂe";379;"";"keine Zweigstelle";462
53.6167;10.028152;3223;"Bugenhagen-Schule Alsterdorf (Stadtteilschule)";22337;"Alsterdorfer Straﬂe";506;"";"keine Zweigstelle";529
53.457895;9.971044;3224;"Niels-Stensen-Gymnasium";21073;"Barlachstraﬂe";16;"";"keine Zweigstelle";542
53.562094;9.807388;3225;"Bugenhagen-Schule im Hessepark (Grundschule)";22587;"Oesterleystraﬂe";22;"";"keine Zweigstelle";63
53.557897;10.031287;3226;"Katholische Stadtteilschuloberstufe Nord-Ost an der Sankt-Ansgar-Schule";20535;"B¸rgerweide";33;"";"keine Zweigstelle";139
53.562184;9.994914;3227;"Katholische Stadtteilschuloberstufe Nord-West an der Sophie-Barat-Schule";20354;"Warburgstraﬂe";39;"";"keine Zweigstelle";79
53.457895;9.971044;3228;"Katholische Stadtteilschuloberstufe S¸d am Niels-Stensen-Gymnasium";21073;"Barlachstraﬂe";16;"";"keine Zweigstelle";112
53.6167;10.028152;3229;"Bugenhagen-Schule Alsterdorf (Grundschule)";22337;"Alsterdorfer Straﬂe";506;"";"keine Zweigstelle";267
53.558109;10.014003;3230;"Domschule St. Marien (Grundschule)";20099;"Schmilinskystraﬂe";70;"";"keine Zweigstelle";89
53.5733;9.86913;3231;"Bugenhagen-Schule Groﬂ Flottbek";22607;"Bei der Flottbeker M¸hle";28;"";"keine Zweigstelle";89
53.56146;10.059516;3232;"Bugenhagen-Schule Hamm, Evangelische Grundschule Paulus";20535;"Quellenweg";10;"";"keine Zweigstelle";96
53.562094;9.807388;3233;"Bugenhagen-Schule im Hessepark (Stadtteilschule)";22587;"Oesterleystraﬂe";22;"";"keine Zweigstelle";324
53.600769;10.047169;5043;"Stadtteilschule Helmuth H¸bener";22307;"Benzenbergweg";2;"";"keine Zweigstelle";447
53.599035;10.048468;5043;"Stadtteilschule Helmuth H¸bener";22307;"Langenfort";68;"";"Zweigstelle";599
53.594694;10.124273;5046;"Gyula Trebitsch Schule Tonndorf";22159;"Barenkrug";16;"";"keine Zweigstelle";1466
53.67175;10.136861;5048;"Stadtteilschule Bergstedt";22395;"Volksdorfer Damm";218;"";"keine Zweigstelle";1019
53.670651;10.028704;5049;"Stadtteilschule Am Heidberg";22417;"Tangstedter Landstraﬂe";300;"";"keine Zweigstelle";921
53.576518;10.021734;5052;"Ilse-Lˆwenstein-Schule";22083;"Humboldtstraﬂe";89;"";"keine Zweigstelle";409
53.632554;10.0482;5053;"Albert-Schweitzer-Schule";22337;"Schluchtweg";1;"";"keine Zweigstelle";714
53.57183;10.132357;5054;"Max-Schmeling-Stadtteilschule";22043;"Denksteinweg";17;"";"keine Zweigstelle";330
53.566538;10.103812;5054;"Max-Schmeling-Stadtteilschule";22043;"Oktaviostraﬂe";143;"";"Zweigstelle";425
53.587521;10.069869;5056;"Stadtteilschule Alter Teichweg";22049;"Alter Teichweg";200;"";"keine Zweigstelle";1086
53.531308;10.148714;5057;"Stadtteilschule M¸mmelmannsberg";22115;"M¸mmelmannsberg";75;"";"keine Zweigstelle";1185
53.528928;10.140187;5058;"Grundschule M¸mmelmannsberg";22115;"M¸mmelmannsberg";54;"";"keine Zweigstelle";469
53.526643;10.154868;5059;"Grundschule Rahewinkel";22115;"Rahewinkel";9;"";"keine Zweigstelle";361
53.493642;10.186819;5061;"Stadtteilschule Bergedorf";21033;"Ladenbeker Weg";13;"";"keine Zweigstelle";1438
53.592068;10.011361;5062;"Heinrich-Hertz-Schule";22303;"Grasweg";72;"";"keine Zweigstelle";1379
53.555393;10.070194;5063;"Stadtteilschule Horn";22111;"Horner Weg";89;"";"Zweigstelle";98
53.55413;10.075247;5063;"Stadtteilschule Horn";22111;"Rhiemsweg";6;"";"Zweigstelle";875
53.556522;10.073326;5063;"Stadtteilschule Horn";22111;"Snitgerreihe";2;"";"keine Zweigstelle";214
53.619407;10.121022;5064;"Erich K‰stner Schule";22159;"An der Berner Au";12;"";"Zweigstelle";722
53.614026;10.119987;5064;"Erich K‰stner Schule";22159;"Hermelinweg";10;"";"keine Zweigstelle";709
53.65669;10.022512;5065;"Fritz-Schumacher-Schule";22417;"Timmerloh";27;"";"keine Zweigstelle";727
53.658962;10.011762;5065;"Fritz-Schumacher-Schule";22419;"Foorthkamp";36;"";"Zweigstelle";272
53.591019;9.856396;5066;"Geschwister-Scholl-Stadtteilschule";22549;"Bˆttcherkamp";181;"";"keine Zweigstelle";566
53.624483;9.903831;5067;"Julius-Leber-Schule";22457;"Halstenbeker Straﬂe";41;"";"keine Zweigstelle";1669
53.639566;10.103231;5069;"Irena-Sendler-Schule";22393;"Am Pfeilshof";20;"";"keine Zweigstelle";1090
53.460821;9.973646;5070;"Goethe-Schule-Harburg";21073;"Eiﬂendorfer Straﬂe";26;"";"keine Zweigstelle";1693
53.574458;9.974398;5071;"Ida Ehre Schule";20144;"Bogenstraﬂe";36;"";"keine Zweigstelle";890
53.580176;9.977077;5071;"Ida Ehre Schule";20251;"Lehmweg";14;"";"Zweigstelle";368
53.493888;10.014258;5072;"Nelson-Mandela-Schule im Stadtteil Kirchdorf";21109;"Neuenfelder Straﬂe";106;"";"keine Zweigstelle";1100
53.615695;10.048836;5074;"Grundschule Edwin-Scharff-Ring";22309;"Edwin-Scharff-Ring";56;"";"keine Zweigstelle";254
53.617926;10.062128;5075;"Schule am See";22309;"Borchertring";38;"";"keine Zweigstelle";474
53.560904;9.922562;5076;"Max-Brauer-Schule";22761;"Bei der Paul-Gerhardt-Kirche";1;"";"keine Zweigstelle";863
53.559216;9.921395;5076;"Max-Brauer-Schule";22763;"Daimlerstraﬂe";40;"";"Zweigstelle";598
53.564681;9.822892;5077;"Stadtteilschule Blankenese";22587;"Frahmstraﬂe";15;"";"keine Zweigstelle";1102
53.645411;10.051428;5079;"Stadtteilschule Poppenb¸ttel";22339;"Poppenb¸ttler Stieg";7;"";"Zweigstelle";364
53.657524;10.081473;5079;"Stadtteilschule Poppenb¸ttel";22399;"Schulbergredder";13;"";"keine Zweigstelle";513
53.532213;9.875553;5080;"Stadtteilschule Finkenwerder";21129;"Norderschulweg";14;"";"keine Zweigstelle";616
53.569055;9.908311;5081;"Stadtteilschule Bahrenfeld";22761;"Regerstraﬂe";21;"";"keine Zweigstelle";907
53.612426;9.887501;5083;"Stadtteilschule Eidelstedt";22523;"Lohkampstraﬂe";145;"";"keine Zweigstelle";654
53.608646;9.896811;5083;"Stadtteilschule Eidelstedt";22523;"Niekampsweg";25;"";"Zweigstelle";398
53.486809;10.167511;5084;"Gretel-Bergmann-Schule";21035;"Margit-Zinke-Straﬂe";7;"";"keine Zweigstelle";833
53.486223;10.160285;5084;"Gretel-Bergmann-Schule";21035;"Von-Moltke-Bogen";40;"";"Zweigstelle";336
53.653258;10.173858;5085;"Stadtteilschule Walddˆrfer";22359;"Ahrensburger Weg";30;"";"keine Zweigstelle";834
53.652334;10.167118;5085;"Stadtteilschule Walddˆrfer";22359;"Vˆrn Barkholt";6;"";"Zweigstelle";421
53.421315;10.204371;5087;"Stadtteilschule Kirchwerder";21037;"Kirchwerder Hausdeich";341;"";"keine Zweigstelle";1077
53.587118;10.028024;5088;"Stadtteilschule Winterhude";22303;"Meerweinstraﬂe";26;"";"keine Zweigstelle";1074
53.541705;10.129848;5089;"Stadtteilschule ÷jendorf";22117;"÷jendorfer Hˆhe";12;"";"keine Zweigstelle";318
53.541909;10.121221;5089;"Stadtteilschule ÷jendorf";22117;"Pergamentweg";1;"";"Zweigstelle";300
53.587197;9.974127;5090;"Stadtteilschule Eppendorf";20251;"Lˆwenstraﬂe";58;"";"keine Zweigstelle";951
53.477179;9.866289;5093;"Stadtteilschule S¸derelbe";21147;"Neumoorst¸ck";1;"";"keine Zweigstelle";850
53.503981;10.212133;5094;"Stadtteilschule Lohbr¸gge";21031;"Binnenfeldredder";7;"";"keine Zweigstelle";1093
53.504513;9.993409;5095;"Stadtteilschule Wilhelmsburg";21107;"Perlstieg";1;"";"Zweigstelle";831
53.505986;9.989948;5095;"Stadtteilschule Wilhelmsburg";21107;"Rotenh‰user Straﬂe";67;"";"keine Zweigstelle";324
53.556029;10.103568;5097;"Br¸der-Grimm-Schule";22119;"Querkamp";68;"";"keine Zweigstelle";440
53.552043;10.106961;5097;"Br¸der-Grimm-Schule";22119;"Steinadlerweg";26;"";"Zweigstelle";465
53.629194;10.162935;5098;"Stadtteilschule Meiendorf";22145;"Deepenhorn";1;"";"keine Zweigstelle";403
53.526718;10.019412;5099;"Schule auf der Veddel";20539;"Slomanstieg";1;"";"keine Zweigstelle";458
53.527878;9.881069;5100;"Aueschule Finkenwerder";21129;"Ostfrieslandstraﬂe";91;"";"keine Zweigstelle";217
53.541985;9.99454;5101;"Katharinenschule in der Hafencity";20457;"Am Dalmannkai";18;"";"keine Zweigstelle";288
53.598509;10.114804;5102;"Grundschule Eckerkoppel";22159;"Berner Heerweg";99;"";"keine Zweigstelle";311
53.547172;9.958743;5103;"Grundschule St.Pauli";20359;"Friedrichstraﬂe";55;"";"keine Zweigstelle";181
53.612426;9.887501;5104;"Grundschule Lohkampstraﬂe";22523;"Lohkampstraﬂe";145;"";"keine Zweigstelle";185
53.556247;10.010763;5105;"Heinrich-Wolgast-Schule";20099;"Greifswalder Straﬂe";40;"";"keine Zweigstelle";343
53.556882;10.041896;5106;"Schule Hohe Landwehr";20535;"Hohe Landwehr";19;"";"keine Zweigstelle";291
53.670651;10.028704;5111;"Grundschule Am Heidberg";22417;"Tangstedter Landstraﬂe";300;"";"keine Zweigstelle";413
53.492228;10.010266;5117;"Grundschule Kirchdorf";21109;"Prassekstraﬂe";5;"";"keine Zweigstelle";344
53.5442;10.119365;5118;"Grundschule Archenholzstraﬂe";22117;"Archenholzstraﬂe";55;"";"keine Zweigstelle";326
53.526661;9.880955;5119;"Westerschule Finkenwerder";21129;"Finkenwerder Landscheideweg";180;"";"keine Zweigstelle";254
53.535398;10.038835;5121;"Schule Marckmannstraﬂe";20539;"Marckmannstraﬂe";60;"";"keine Zweigstelle";95
53.588752;9.983754;5124;"Grundschule St. Nikolai";20249;"Robert-Koch-Straﬂe";15;"";"keine Zweigstelle";301
53.579393;10.026124;5127;"Goldbek-Schule";22083;"Imstedt";18;"";"keine Zweigstelle";236
53.552325;10.083003;5130;"Schule Beim Pachthof";22111;"Beim Pachthof";15;"";"keine Zweigstelle";299
53.536103;10.04046;5134;"Fritz-Kˆhne-Schule";20539;"Marckmannstraﬂe";61;"";"keine Zweigstelle";257
53.638743;10.119224;5136;"Grundschule Hasenweg";22393;"Hasenweg";40;"";"keine Zweigstelle";356
53.563748;9.953492;5137;"Grundschule Arnkielstraﬂe";22769;"Arnkielstraﬂe";2;"";"keine Zweigstelle";344
53.54877;10.056462;5139;"Grundschule Osterbrook";20537;"Osterbrook";17;"";"keine Zweigstelle";228
53.659116;10.079312;5143;"Grundschule Poppenb¸ttel";22399;"Schulbergredder";21;"";"keine Zweigstelle";244
53.55293;9.899824;5145;"Elbschule Bildungszentrum Hˆren und Kommunikation";22605;"Holmbrook";20;"";"keine Zweigstelle";209
53.566962;9.830032;5158;"Elbkinder Grundschule";22589;"Grotefendweg";20;"";"keine Zweigstelle";305
53.533594;10.13098;5160;"Schule An der Glinder Au";22115;"Sonnenland";27;"";"keine Zweigstelle";241
53.564154;9.964033;5167;"Ganztagsgrundschule Sternschanze";20357;"Altonaer Straﬂe";38;"";"keine Zweigstelle";262
53.559555;9.965744;5167;"Ganztagsgrundschule Sternschanze";20357;"Ludwigstraﬂe";7;"";"Zweigstelle";300
53.555037;10.095588;5169;"Schule Speckenreye";22119;"Speckenreye";11;"";"keine Zweigstelle";229
53.549328;10.094234;5171;"Schule Stengelestraﬂe";22111;"Stengelestraﬂe";38;"";"keine Zweigstelle";406
53.532344;10.108316;5172;"Schule am Schleemer Park";22113;"Billbrookdeich";266;"";"Zweigstelle";155
53.537529;10.120308;5172;"Schule am Schleemer Park";22117;"Oberschleems";9;"";"keine Zweigstelle";300
53.55974;10.111833;5173;"Schule Sterntalerstraﬂe";22119;"Sterntalerstraﬂe";42;"";"keine Zweigstelle";214
53.545004;10.135797;5174;"Schule Bonhoefferstraﬂe";22117;"Bonhoefferstraﬂe";13;"";"keine Zweigstelle";232
53.561298;10.121933;5175;"Schule Fuchsbergredder";22119;"Dringsheide";10;"";"keine Zweigstelle";243
53.558395;9.92627;5202;"Schule Bahrenfelder Straﬂe";22765;"Gauﬂstraﬂe";171;"";"keine Zweigstelle";363
53.614721;10.07761;5205;"Grundschule Bramfeld";22179;"Bramfelder Dorfplatz";5;"";"Zweigstelle";85
53.605828;10.082094;5205;"Grundschule Bramfeld";22179;"Hegholt";44;"";"keine Zweigstelle";251
53.554149;9.950344;5206;"Louise Schroeder Schule";22767;"Thedestraﬂe";100;"";"keine Zweigstelle";487
53.629535;10.126143;5208;"Grundschule Karlshˆhe mit Zweigstellen";22159;"Lienaustraﬂe";32;"";"Zweigstelle";102
53.620388;10.089992;5208;"Grundschule Karlshˆhe mit Zweigstellen";22175;"Hohnerkamp";58;"";"Zweigstelle";104
53.626941;10.110786;5208;"Grundschule Karlshˆhe mit Zweigstellen";22175;"Thomas-Mann-Straﬂe";2;"";"keine Zweigstelle";220
53.553082;9.883526;5209;"Schule Klein Flottbeker Weg";22605;"Klein Flottbeker Weg";64;"";"keine Zweigstelle";308
53.552614;9.90207;5210;"Loki-Schmidt-Schule";22763;"Othmarscher Kirchenweg";145;"";"keine Zweigstelle";268
53.548775;9.929801;5211;"Schule Rothestraﬂe";22765;"Rothestraﬂe";22;"";"keine Zweigstelle";403
53.547516;9.9449;5212;"Ganztagsschule an der Elbe";22767;"Struenseestraﬂe";32;"";"keine Zweigstelle";146
53.556237;9.95584;5214;"Grundschule Thadenstraﬂe";22767;"Thadenstraﬂe";147;"";"keine Zweigstelle";435
53.559446;9.941075;5216;"Theodor-Haubach-Schule";22765;"Haubachstraﬂe";55;"";"keine Zweigstelle";271
53.547792;9.910527;5217;"Schule Trenknerweg";22605;"Trenknerweg";136;"";"keine Zweigstelle";422
53.551987;9.900959;5219;"Schule Hirtenweg";22605;"Holmbrook";10;"";"keine Zweigstelle";191
53.571367;10.103058;5220;"Grundschule Schimmelmannstraﬂe";22043;"Schimmelmannstraﬂe";70;"";"keine Zweigstelle";387
53.570788;9.848959;5231;"Grundschule Goosacker";22549;"Goosacker";41;"";"keine Zweigstelle";292
53.563788;9.800967;5232;"Gorch-Fock-Schule";22587;"Karstenstraﬂe";22;"";"keine Zweigstelle";509
53.575411;9.762019;5234;"Schule Iserbarg";22559;"Iserbarg";2;"";"keine Zweigstelle";348
53.584645;9.790716;5235;"Schule Lehmkuhlenweg";22589;"Lehmkuhlenweg";19;"";"keine Zweigstelle";314
53.584287;9.76202;5236;"Schule Marschweg";22559;"Marschweg";10;"";"keine Zweigstelle";309
53.563665;9.905968;5237;"Schule Mendelssohnstraﬂe";22761;"Mendelssohnstraﬂe";86;"";"keine Zweigstelle";297
53.579803;9.812264;5238;"Schule Iserbrook";22589;"Mus‰usstraﬂe";29;"";"keine Zweigstelle";221
53.567742;9.89429;5239;"Grundschule Groﬂ Flottbek";22607;"Osdorfer Weg";24;"";"keine Zweigstelle";348
53.577256;9.825669;5240;"Schule Schenefelder Landstraﬂe";22589;"Schenefelder Landstraﬂe";206;"";"keine Zweigstelle";203
53.552589;9.84689;5243;"Schule Schulkamp";22609;"Schulkamp";1;"";"keine Zweigstelle";274
53.566788;9.869902;5244;"Schule Windm¸hlenweg";22607;"Windm¸hlenweg";17;"";"keine Zweigstelle";415
53.573302;9.89964;5245;"Schule Kielkamp";22761;"Kielkamp";16;"";"keine Zweigstelle";132
53.552326;9.978212;5248;"Rudolf-Roﬂ-Grundschule";20355;"Kurze Straﬂe";30;"";"keine Zweigstelle";316
53.559502;10.074679;5250;"Grundschule Horn";22111;"Rhiemsweg";61;"";"keine Zweigstelle";255
53.617781;10.15427;5252;"Grundschule Nydamer Weg";22145;"Nydamer Weg";44;"";"keine Zweigstelle";340
53.607876;9.873099;5263;"Grundschule Franzosenkoppel";22547;"Franzosenkoppel";118;"";"keine Zweigstelle";272
53.60058;9.869762;5264;"Fridtjof-Nansen-Schule";22547;"Fahrenort";76;"";"keine Zweigstelle";373
53.598852;9.860145;5264;"Fridtjof-Nansen-Schule";22547;"Swatten Weg";10;"";"Zweigstelle";195
53.605234;9.901253;5265;"Schule Furtweg";22523;"Furtweg";56;"";"keine Zweigstelle";257
53.59694;9.890479;5267;"Schule Langbargheide";22547;"Langbargheide";40;"";"keine Zweigstelle";243
53.590678;9.873084;5270;"Grundschule Luruper Hauptstraﬂe";22547;"Luruper Hauptstraﬂe";131;"";"keine Zweigstelle";208
53.616078;9.899188;5271;"Max-Traeger-Schule";22523;"Baumacker";10;"";"keine Zweigstelle";158
53.611205;9.911701;5274;"Schule Rungwisch";22523;"Rungwisch";23;"";"keine Zweigstelle";274
53.575567;9.861348;5277;"Schule Wesperloh";22549;"Wesperloh";19;"";"keine Zweigstelle";336
53.588653;9.846065;5278;"Schule Kroonhorst";22549;"Kroonhorst";25;"";"keine Zweigstelle";211
53.583473;9.857109;5280;"Schule Barlsheide";22549;"Bornheide";2;"";"keine Zweigstelle";396
53.575592;9.968352;5301;"Schule An der Isebek";20253;"Bismarckstraﬂe";83;"";"keine Zweigstelle";361
53.581427;9.96784;5304;"Grundschule Hoheluft";20253;"Wrangelstraﬂe";80;"";"keine Zweigstelle";299
53.571583;9.946981;5305;"Schule Eduardstraﬂe";20257;"Eduardstraﬂe";28;"";"keine Zweigstelle";164
53.572099;9.974417;5308;"Schule Kielortallee";20144;"Kielortallee";18;"";"keine Zweigstelle";437
53.584667;9.939475;5309;"Schule Brehmweg";22527;"Brehmweg";62;"";"keine Zweigstelle";250
53.58136;9.952903;5310;"Schule Lutterothstraﬂe";20255;"Lutterothstraﬂe";34;"";"keine Zweigstelle";374
53.573777;9.941493;5312;"Schule Rellinger Straﬂe";20257;"Rellinger Straﬂe";13;"";"keine Zweigstelle";392
53.574118;9.953183;5315;"Schule Tornquiststraﬂe";20259;"Tornquiststraﬂe";60;"";"keine Zweigstelle";335
53.571847;9.992111;5316;"Schule Turmweg";20148;"Turmweg";33;"";"keine Zweigstelle";510
53.646513;9.919377;5328;"Schule Rˆnnkamp";22457;"Rˆnnkamp";3;"";"keine Zweigstelle";203
53.641662;9.919078;5330;"Schule Anna-Susanna-Stieg";22457;"Anna-Susanna-Stieg";3;"";"keine Zweigstelle";379
53.623773;9.946805;5331;"Grundschule Bindfeldweg";22459;"Bindfeldweg";37;"";"keine Zweigstelle";259
53.627895;9.96383;5332;"Schule Burgunderweg";22453;"Burgunderweg";2;"";"keine Zweigstelle";381
53.620111;9.889478;5333;"Schule Heidacker";22523;"Heidacker";13;"";"keine Zweigstelle";239
53.59576;9.954919;5334;"Schule Dˆhrnstraﬂe";22529;"Dˆhrnstraﬂe";42;"";"keine Zweigstelle";441
53.632696;9.918786;5335;"Schule Frohmestraﬂe";22457;"Frohmestraﬂe";42;"";"keine Zweigstelle";364
53.60305;9.94547;5336;"Schule Hinter der Lieth";22529;"Hinter der Lieth";61;"";"keine Zweigstelle";302
53.589022;9.926298;5339;"Schule Molkenbuhrstraﬂe";22525;"Molkenbuhrstraﬂe";2;"";"keine Zweigstelle";182
53.634086;9.943087;5342;"Schule Sethweg";22455;"Sethweg";56;"";"keine Zweigstelle";331
53.589243;9.950462;5344;"Schule Vizelinstraﬂe";22529;"Vizelinstraﬂe";50;"";"keine Zweigstelle";295
53.602495;9.923313;5345;"Schule Wegenkamp";22527;"Wegenkamp";9;"";"keine Zweigstelle";208
53.607186;9.971537;5346;"Schule Lokstedter Damm";22453;"Lokstedter Damm";38;"";"keine Zweigstelle";103
53.64243;9.94415;5347;"Schule Moorflagen";22455;"Wagrierweg";18;"";"keine Zweigstelle";218
53.640954;9.961005;5348;"Grundschule Sachsenweg";22455;"Sachsenweg";74;"";"keine Zweigstelle";231
53.627606;9.924638;5349;"Schule Rˆthmoorweg";22459;"Rˆthmoorweg";9;"";"keine Zweigstelle";133
53.559261;9.957769;5350;"ReBBZ Altona";22767;"Bernstorffstraﬂe";147;"";"keine Zweigstelle";94
53.545579;9.948363;5350;"ReBBZ Altona";22767;"Carsten-Rehder-Straﬂe";34;"";"Zweigstelle";72
53.592384;9.861092;5351;"ReBBZ Altona-West";22549;"Bˆttcherkamp";144;"";"keine Zweigstelle";109
53.49697;10.206435;5352;"ReBBZ Bergedorf";21031;"Leuschnerstraﬂe";13;"";"keine Zweigstelle";100
53.511664;10.205529;5352;"ReBBZ Bergedorf";21031;"Reinbeker Redder";274;"";"Zweigstelle";118
53.623773;9.946805;5353;"ReBBZ Eimsb¸ttel";22459;"Bindfeldweg";37;"";"keine Zweigstelle";93
53.476122;9.865096;5354;"ReBBZ S¸derelbe";21147;"Neuwiedenthaler Straﬂe";4;"";"keine Zweigstelle";103
53.453855;9.973383;5355;"ReBBZ Harburg";21073;"Baererstraﬂe";81;"";"keine Zweigstelle";166
53.463272;9.974875;5355;"ReBBZ Harburg";21073;"Schwarzenbergstraﬂe";72;"";"Zweigstelle";139
53.541275;10.10348;5356;"ReBBZ Billstedt";22111;"Hauskoppelstieg";12;"";"Zweigstelle";111
53.561298;10.121933;5356;"ReBBZ Billstedt";22119;"Dringsheide";10;"";"Zweigstelle";51
53.546973;10.101187;5356;"ReBBZ Billstedt";22119;"Steinfeldtstraﬂe";1;"";"keine Zweigstelle";24
53.510535;9.995494;5357;"ReBBZ Wilhelmsburg";21107;"Zeidlerstraﬂe";50;"";"Zweigstelle";149
53.48729;10.02213;5357;"ReBBZ Wilhelmsburg";21109;"Karl-Arnold-Ring";11;"";"Zweigstelle";10
53.499651;10.012923;5357;"ReBBZ Wilhelmsburg";21109;"Krieterstraﬂe";2;"a";"keine Zweigstelle";142
53.556247;10.010763;5358;"ReBBZ Mitte";20099;"Greifswalder Straﬂe";40;"";"Zweigstelle";154
53.582849;10.037425;5359;"ReBBZ Winterhude";22083;"Brucknerstraﬂe";17;"";"Zweigstelle";38
53.625423;10.015219;5359;"ReBBZ Winterhude";22335;"Eschenweg";1;"";"keine Zweigstelle";116
53.615169;10.020527;5360;"ReBBZ Nord";22297;"Sengelmannstraﬂe";50;"";"keine Zweigstelle";125
53.606677;10.170794;5361;"ReBBZ Wandsbek-Nord";22143;"Sieker Landstraﬂe";18;"";"Zweigstelle";101
53.620388;10.089992;5361;"ReBBZ Wandsbek-Nord";22175;"Hohnerkamp";58;"";"keine Zweigstelle";141
53.562599;10.074605;5362;"ReBBZ Wandsbek-S¸d";22043;"Zitzewitzstraﬂe";51;"";"keine Zweigstelle";207
53.615942;10.092885;5362;"ReBBZ Wandsbek-S¸d";22179;"Heidst¸cken";33;"";"Zweigstelle";182
53.596149;9.9963;5400;"Schule Alsterdorfer Straﬂe";22299;"Alsterdorfer Straﬂe";39;"";"keine Zweigstelle";350
53.584454;10.013877;5404;"Schule Forsmannstraﬂe";22303;"Forsmannstraﬂe";32;"";"keine Zweigstelle";341
53.573645;10.026915;5405;"Schule Humboldtstraﬂe";22083;"Humboldtstraﬂe";30;"";"keine Zweigstelle";247
53.590235;9.990755;5409;"Schule Knauerstraﬂe";20249;"Knauerstraﬂe";22;"";"keine Zweigstelle";238
53.591888;9.984925;5413;"Marie-Besch¸tz-Schule";20251;"Schottm¸llerstraﬂe";23;"";"keine Zweigstelle";358
53.570061;10.026932;5416;"Schule auf der Uhlenhorst";22085;"Winterhuder Weg";126;"";"keine Zweigstelle";343
53.613728;10.02134;5417;"Kurt-Juster-Schule";22297;"Alsterdorfer Straﬂe";420;"";"keine Zweigstelle";82
53.601326;10.012205;5418;"Bildungszentrum f¸r Blinde und Sehbehinderte";22297;"Carl-Cohn-Straﬂe";2;"";"Zweigstelle";51
53.591565;10.013456;5418;"Bildungszentrum f¸r Blinde und Sehbehinderte";22303;"Borgweg";17;"";"keine Zweigstelle";95
53.597852;10.136627;5419;"Schule Tegelweg";22147;"Paracelsusstraﬂe";30;"";"Zweigstelle";13
53.601383;10.109127;5419;"Schule Tegelweg";22159;"Tegelweg";104;"";"keine Zweigstelle";118
53.60003;10.096123;5419;"Schule Tegelweg";22179;"Turnierstieg";16;"";"Zweigstelle";5
53.5782;10.04736;5430;"Adolph-Schˆnfelder-Schule";22081;"Zeisigstraﬂe";3;"";"keine Zweigstelle";271
53.583064;10.039305;5430;"Adolph-Schˆnfelder-Schule";22083;"Brucknerstraﬂe";1;"";"Zweigstelle";174
53.593364;10.039068;5437;"Schule Genslerstraﬂe";22307;"Genslerstraﬂe";33;"";"keine Zweigstelle";282
53.612365;10.034211;5437;"Schule Genslerstraﬂe";22337;"Ballerstaedtweg";1;"";"Zweigstelle";218
53.588079;10.060869;5439;"Schule L‰mmersieth";22305;"L‰mmersieth";72;"";"keine Zweigstelle";184
53.597852;10.136627;5447;"Schule Paracelsusstraﬂe";22147;"Paracelsusstraﬂe";30;"";"keine Zweigstelle";101
53.601326;10.012205;5462;"Carl-Cohn-Schule";22297;"Carl-Cohn-Straﬂe";2;"";"keine Zweigstelle";359
53.607042;9.977425;5463;"Carl-Gˆtze-Schule";22453;"Brˆdermannsweg";2;"";"keine Zweigstelle";256
53.651265;10.013941;5464;"Schule Eberhofweg";22415;"Eberhofweg";63;"";"keine Zweigstelle";247
53.646993;10.000207;5469;"Schule Krohnstieg";22415;"Krohnstieg";107;"";"keine Zweigstelle";240
53.667141;10.003944;5472;"Schule Neubergerweg";22419;"Neubergerweg";2;"";"keine Zweigstelle";302
53.636612;10.021909;5473;"Schule Ohkamp";22339;"Ohkampring";13;"";"keine Zweigstelle";340
53.678419;10.018902;5476;"Schule Stockflethweg";22417;"Stockflethweg";160;"";"keine Zweigstelle";243
53.626414;10.021295;5480;"Schule Ratsm¸hlendamm";22335;"Ratsm¸hlendamm";39;"";"keine Zweigstelle";337
53.596064;10.152668;5501;"Grundschule Altrahlstedt";22149;"Brockdorffstraﬂe";2;"";"keine Zweigstelle";111
53.594649;10.163297;5501;"Grundschule Altrahlstedt";22149;"Brockdorffstraﬂe";64;"";"Zweigstelle";84
53.592733;10.180134;5502;"Schule Am Sooren";22149;"Brunskamp";17;"";"keine Zweigstelle";263
53.612417;10.13731;5503;"Schule Bekassinenau";22147;"Bekassinenau";32;"";"keine Zweigstelle";310
53.594649;10.163297;5504;"Schule Brockdorffstraﬂe";22149;"Brockdorffstraﬂe";64;"";"keine Zweigstelle";313
53.586814;10.142948;5505;"Schule Charlottenburger Straﬂe";22045;"Charlottenburger Straﬂe";84;"";"keine Zweigstelle";241
53.60056;10.178688;5506;"Grundschule Groﬂlohering";22143;"Groﬂlohering";11;"";"keine Zweigstelle";176
53.61871;10.141988;5507;"Schule Kamminer Straﬂe";22147;"Kamminer Straﬂe";4;"";"keine Zweigstelle";217
53.60464;10.166205;5508;"Grundschule Neurahlstedt";22143;"Rahlstedter Straﬂe";190;"";"keine Zweigstelle";332
53.583738;10.149376;5510;"Schule Potsdamer Straﬂe";22149;"Potsdamer Straﬂe";6;"";"keine Zweigstelle";235
53.588068;10.133676;5514;"Grundschule Tonndorf";22045;"Rahlaukamp";1;"";"keine Zweigstelle";201
53.574905;10.134976;5515;"Schule Bekkamp";22045;"Bekkamp";52;"";"keine Zweigstelle";124
53.658992;10.099581;5520;"Schule Alsterredder";22395;"Alsterredder";28;"";"keine Zweigstelle";451
53.696992;10.135524;5522;"Schule Am Walde";22397;"Kupferredder";12;"";"keine Zweigstelle";194
53.703703;10.10835;5523;"Schule Duvenstedter Markt";22397;"Duvenstedter Markt";12;"";"keine Zweigstelle";321
53.650002;10.148601;5525;"Schule An den Teichwiesen";22359;"Saseler Weg";30;"";"keine Zweigstelle";315
53.671945;10.133011;5526;"Schule Bergstedt";22395;"Bergstedter Alte Landstraﬂe";12;"";"keine Zweigstelle";288
53.665054;10.149137;5529;"Schule Buckhorn";22359;"Volksdorfer Damm";74;"";"keine Zweigstelle";311
53.650801;10.07343;5530;"Schule Hinsbleek";22391;"Hinsbleek";14;"";"keine Zweigstelle";287
53.651892;10.170455;5532;"Schule Ahrensburger Weg";22359;"Ahrensburger Weg";12;"";"keine Zweigstelle";322
53.644107;10.184019;5533;"Schule Eulenkrugstraﬂe";22359;"Eulenkrugstraﬂe";166;"";"keine Zweigstelle";340
53.650526;10.109302;5534;"Schule Redder";22393;"Redder";4;"";"keine Zweigstelle";509
53.680973;10.103874;5535;"Schule Lemsahl-Mellingstedt";22397;"Redderbarg";46;"";"keine Zweigstelle";321
53.654579;10.066653;5537;"Schule M¸ssenredder";22399;"M¸ssenredder";61;"";"keine Zweigstelle";364
53.629058;10.159083;5538;"Grundschule Islandstraﬂe";22145;"Islandstraﬂe";25;"";"keine Zweigstelle";307
53.646144;10.039688;5540;"Schule Gr¸tzm¸hlenweg";22339;"Gr¸tzm¸hlenweg";38;"";"keine Zweigstelle";341
53.636693;10.079082;5541;"Schule Strenge";22391;"Strenge";5;"";"keine Zweigstelle";407
53.628163;10.170791;5542;"Schule Wildschwanbrook";22145;"Wildschwanbrook";9;"";"keine Zweigstelle";207
53.600354;10.132029;5544;"Schule Rahlstedter Hˆhe";22147;"Ahrenshooper Straﬂe";1;"";"keine Zweigstelle";402
53.596928;10.101152;5550;"Schule Traberweg";22159;"Eckerkoppel";125;"";"keine Zweigstelle";233
53.605472;10.093968;5551;"Schule Eenstock";22179;"Eenstock";15;"";"keine Zweigstelle";228
53.604993;10.068173;5557;"Schule An der Seebek";22177;"Fabriciusstraﬂe";150;"";"Zweigstelle";194
53.599742;10.056281;5557;"Schule An der Seebek";22177;"Heinrich-Helbing-Straﬂe";50;"";"keine Zweigstelle";199
53.616101;10.096547;5558;"Schule Fahrenkrˆn";22179;"Fahrenkrˆn";115;"";"keine Zweigstelle";294
53.606474;10.058617;5564;"Schule Appelhoff";22309;"Appelhoff";2;"";"keine Zweigstelle";289
53.613934;10.106087;5565;"Schule Surenland";22159;"Bramfelder Weg";121;"";"keine Zweigstelle";296
53.589191;10.086881;5575;"Schule An der Gartenstadt";22047;"Stephanstraﬂe";103;"";"keine Zweigstelle";517
53.576167;10.066538;5577;"Schule Bandwirkerstraﬂe";22041;"Bandwirkerstraﬂe";56;"";"keine Zweigstelle";224
53.571517;10.080437;5578;"Schule Bovestraﬂe";22041;"Bovestraﬂe";10;"";"keine Zweigstelle";324
53.564529;10.044368;5581;"Schule Hasselbrook";22089;"Ritterstraﬂe";44;"";"keine Zweigstelle";268
53.567615;10.135651;5586;"Schule ÷jendorfer Damm";22043;"÷jendorfer Damm";8;"";"keine Zweigstelle";221
53.581582;10.095973;5587;"Schule am Eichtalpark";22047;"Walddˆrferstraﬂe";243;"";"keine Zweigstelle";183
53.568187;10.040213;5588;"Schule Richardstraﬂe";22089;"Richardstraﬂe";85;"";"keine Zweigstelle";226
53.569962;10.053683;5591;"Schule Wielandstraﬂe";22089;"Wielandstraﬂe";9;"";"keine Zweigstelle";361
53.573858;10.144803;5592;"Schule Oppelner Straﬂe";22045;"Oppelner Straﬂe";45;"";"keine Zweigstelle";230
53.576333;10.13228;5594;"Schule Jenfelder Straﬂe";22045;"Jenfelder Straﬂe";252;"";"keine Zweigstelle";276
53.495338;10.217442;5602;"Schule Sander Straﬂe";21029;"Sander Straﬂe";11;"";"keine Zweigstelle";238
53.482013;10.173786;5603;"Anton-RÈe-Schule Allermˆhe";21035;"Ebner-Eschenbach-Weg";43;"";"keine Zweigstelle";478
53.487683;10.166296;5603;"Anton-RÈe-Schule Allermˆhe";21035;"Von-Haeften-Straﬂe";1;"";"Zweigstelle";22
53.483799;10.226014;5604;"Schule Ernst-Henning-Straﬂe";21029;"Ernst-Henning-Straﬂe";20;"";"keine Zweigstelle";447
53.49697;10.206435;5605;"Schule Leuschnerstraﬂe";21031;"Leuschnerstraﬂe";13;"";"keine Zweigstelle";224
53.506105;10.218224;5607;"Schule Max-Eichholz-Ring";21031;"Max-Eichholz-Ring";25;"";"keine Zweigstelle";414
53.480314;10.194973;5610;"Schule Nettelnburg";21035;"Fiddigshagen";11;"";"keine Zweigstelle";367
53.506149;10.193277;5611;"Grundschule Mendelstraﬂe";21031;"Mendelstraﬂe";6;"";"keine Zweigstelle";316
53.516504;10.169425;5612;"Grundschule Heidhorst";21031;"Heidhorst";16;"";"keine Zweigstelle";165
53.512845;10.159211;5613;"Schule Weidemoor";21033;"Weidemoor";1;"";"keine Zweigstelle";145
53.493213;10.179133;5614;"Schule Friedrich-Frank-Bogen";21033;"Friedrich-Frank-Bogen";25;"";"keine Zweigstelle";193
53.485542;10.152677;5615;"Clara-Grunwald-Schule";21035;"Walter-Rothenburg-Weg";37;"";"keine Zweigstelle";351
53.486625;10.14822;5616;"Adolph-Diesterweg-Schule";21035;"Felix-Jud-Ring";29;"";"keine Zweigstelle";351
53.498981;10.132897;5630;"Schule Mittlerer Landweg";21033;"Mittlerer Landweg";48;"";"keine Zweigstelle";105
53.428629;10.270584;5631;"Schule Altengamme-Deich";21039;"Kirchenstegel";12;"";"keine Zweigstelle";107
53.448242;10.218807;5634;"Schule Curslack-Neuengamme";21039;"Gramkowweg";5;"";"keine Zweigstelle";204
53.448285;10.133836;5635;"Schule F¸nfhausen-Warwisch";21037;"Durchdeich";108;"";"keine Zweigstelle";114
53.472478;10.073538;5644;"Schule Ochsenwerder";21037;"Elversweg";44;"";"keine Zweigstelle";189
53.400947;10.185067;5648;"Schule Zollenspieker";21037;"Kirchenheerweg";223;"";"keine Zweigstelle";188
53.580425;9.752499;5649;"Stadtteilschule Rissen";22559;"Voﬂhagen";15;"";"keine Zweigstelle";464
53.593004;10.152024;5650;"Stadtteilschule Altrahlstedt";22149;"H¸llenkamp";19;"";"keine Zweigstelle";668
53.587673;10.169336;5650;"Stadtteilschule Altrahlstedt";22149;"Kielkoppelstraﬂe";16;"d";"Zweigstelle";122
53.456102;9.951638;5651;"Stadtteilschule Ehestorfer Weg";21075;"Ehestorfer Weg";14;"";"keine Zweigstelle";737
53.567085;9.94619;5654;"Kurt-Tucholsky-Schule";22769;"Eckernfˆrder Straﬂe";70;"";"keine Zweigstelle";690
53.585383;9.941455;5655;"Stadtteilschule Stellingen";22527;"Brehmweg";60;"";"keine Zweigstelle";739
53.594669;9.930306;5655;"Stadtteilschule Stellingen";22527;"Sportplatzring";73;"";"Zweigstelle";247
53.614721;10.07761;5656;"Stadtteilschule Bramfeld";22179;"Bramfelder Dorfplatz";5;"";"keine Zweigstelle";472
53.605828;10.082094;5656;"Stadtteilschule Bramfeld";22179;"Hegholt";44;"";"Zweigstelle";234
53.500178;10.189547;5657;"Stadtteilschule Richard-Linde-Weg";21033;"Richard-Linde-Weg";49;"";"keine Zweigstelle";793
53.483497;10.015558;5658;"Stadtteilschule St¸benhofer Weg";21109;"St¸benhofer Weg";20;"";"keine Zweigstelle";686
53.570788;9.848959;5659;"Stadtteilschule Flottbek";22549;"Goosacker";41;"";"keine Zweigstelle";463
53.6119;10.157548;5660;"Stadtteilschule Oldenfelde";22143;"Delingsdorfer Weg";6;"";"keine Zweigstelle";782
53.590678;9.873084;5661;"Stadtteilschule Lurup";22547;"Luruper Hauptstraﬂe";131;"";"keine Zweigstelle";294
53.606791;9.875306;5661;"Stadtteilschule Lurup";22547;"Veermoor";4;"";"Zweigstelle";390
53.590667;9.883701;5661;"Stadtteilschule Lurup";22547;"Vorhornweg";2;"";"Zweigstelle";218
53.580968;10.057414;5662;"Stadtteilschule Barmbek";22049;"Krausestraﬂe";53;"";"keine Zweigstelle";388
53.598455;10.037146;5662;"Stadtteilschule Barmbek";22307;"Fraenkelstraﬂe";3;"";"Zweigstelle";404
53.59288;10.051715;5662;"Stadtteilschule Barmbek";22307;"Tieloh";28;"";"Zweigstelle";337
53.557485;10.016212;5663;"Stadtteilschule Hamburg-Mitte";20099;"Rostocker Straﬂe";41;"";"keine Zweigstelle";548
53.564436;10.061195;5663;"Stadtteilschule Hamburg-Mitte";20535;"Griesstraﬂe";101;"";"Zweigstelle";536
53.462462;9.976086;5664;"Lessing-Stadtteilschule";21073;"Am Soldatenfriedhof";21;"";"keine Zweigstelle";546
53.430447;9.969711;5664;"Lessing-Stadtteilschule";21077;"Sinstorfer Weg";40;"";"Zweigstelle";274
53.633869;9.951073;5665;"Stadtteilschule Niendorf";22455;"Paul-Sorge-Straﬂe";133;"";"keine Zweigstelle";540
53.640954;9.961005;5665;"Stadtteilschule Niendorf";22455;"Sachsenweg";74;"";"Zweigstelle";349
53.634086;9.943087;5665;"Stadtteilschule Niendorf";22455;"Sethweg";56;"";"Zweigstelle";154
53.553736;9.981187;5667;"Stadtteilschule Am Hafen";20355;"Neust‰dter Straﬂe";60;"";"keine Zweigstelle";757
53.547172;9.958743;5667;"Stadtteilschule Am Hafen";20359;"Friedrichstraﬂe";55;"";"Zweigstelle";236
53.548069;9.946605;5667;"Stadtteilschule Am Hafen";22767;"Struenseestraﬂe";20;"";"Zweigstelle";184
53.474056;9.837272;5669;"Stadtteilschule Fischbek/Falkenberg";21149;"Fischbeker Moor";6;"";"keine Zweigstelle";873
53.465542;9.861688;5669;"Stadtteilschule Fischbek/Falkenberg";21149;"Heidrand";5;"";"Zweigstelle";672
53.579143;10.126091;5670;"Otto-Hahn-Schule";22043;"Jenfelder Allee";53;"";"keine Zweigstelle";1387
53.45879;9.964166;5701;"Schule Dempwolffstraﬂe";21073;"Dempwolffstraﬂe";7;"";"keine Zweigstelle";190
53.454113;9.98182;5703;"Schule Maretstraﬂe";21073;"Maretstraﬂe";50;"";"keine Zweigstelle";777
53.468202;9.954824;5704;"Schule Grumbrechtstraﬂe";21075;"Grumbrechtstraﬂe";63;"";"keine Zweigstelle";536
53.449129;9.935096;5706;"Schule In der Alten Forst";21077;"In der Alten Forst";1;"";"keine Zweigstelle";574
53.43887;10.008771;5707;"Schule Rˆnneburg";21079;"Kanzlerstraﬂe";25;"";"keine Zweigstelle";336
53.445683;9.988733;5708;"Schule Kapellenweg";21077;"Kapellenweg";63;"";"keine Zweigstelle";311
53.461602;9.973523;5710;"Schule Kerschensteinerstraﬂe";21073;"Kerschensteinerstraﬂe";16;"";"keine Zweigstelle";292
53.438539;9.964436;5713;"Schule Marmstorf";21077;"Ernst-Bergeest-Weg";54;"";"keine Zweigstelle";391
53.46912;10.036842;5714;"Schule Neuland";21079;"Neul‰nder Elbdeich";241;"";"keine Zweigstelle";99
53.426757;9.987121;5718;"Schule Scheeﬂeler Kehre";21079;"Scheeﬂeler Kehre";2;"";"keine Zweigstelle";351
53.460782;9.955604;5719;"Grundschule am Kiefernberg";21075;"Weusthoffstraﬂe";95;"";"keine Zweigstelle";449
53.440346;9.970873;5722;"Schule Elfenwiese";21077;"Elfenwiese";3;"";"keine Zweigstelle";189
53.441426;9.971192;5723;"Schule Nymphenweg";21077;"Nymphenweg";20;"";"keine Zweigstelle";61
53.474349;9.893124;5723;"Schule Nymphenweg";21147;"Hausbrucher Bahnhofstraﬂe";19;"";"Zweigstelle";34
53.499651;10.012923;5742;"Elbinselschule";21109;"Krieterstraﬂe";2;"b";"keine Zweigstelle";400
53.511984;10.017592;5742;"Elbinselschule";21109;"Rahmwerder Straﬂe";3;"";"Zweigstelle";143
53.530433;9.772281;5743;"Schule Cranz";21129;"Estebogen";3;"";"keine Zweigstelle";79
53.516576;9.980902;5744;"Ganztagsschule F‰hrstraﬂe";21107;"F‰hrstraﬂe";90;"";"keine Zweigstelle";258
53.475826;9.854381;5747;"Ganztagsgrundschule Am Johannisland";21147;"Am Johannisland";4;"";"keine Zweigstelle";334
53.474349;9.893124;5749;"Grundschule An der Haake";21147;"Hausbrucher Bahnhofstraﬂe";19;"";"Zweigstelle";60
53.476959;9.885752;5749;"Grundschule An der Haake";21147;"Lange Striepen";51;"";"keine Zweigstelle";296
53.516221;9.810279;5753;"Schule Arp-Schnitger-Stieg";21129;"Arp-Schnitger-Stieg";19;"";"keine Zweigstelle";198
53.474314;9.865248;5755;"Grundschule Neugraben - Offene Ganztagsgrundschule (GBS)";21147;"Francoper Straﬂe";32;"";"keine Zweigstelle";273
53.511029;9.991981;5761;"Schule Rotenh‰user Damm";21107;"Rotenh‰user Damm";45;"";"keine Zweigstelle";281
53.466725;9.839186;5762;"Schule Schnuckendrift";21149;"Schnuckendrift";21;"";"keine Zweigstelle";293
53.483497;10.015558;5763;"Grundschule St¸benhofer Weg";21109;"St¸benhofer Weg";20;"";"keine Zweigstelle";259
53.470458;9.816513;5768;"Schule Ohrnsweg";21149;"Ohrnsweg";52;"";"keine Zweigstelle";144
53.487154;10.024284;5773;"Schule an der Burgweide";21109;"Karl-Arnold-Ring";13;"";"keine Zweigstelle";265
53.541909;10.121221;5800;"Kurt-Kˆrber-Gymnasium";22117;"Pergamentweg";1;"";"keine Zweigstelle";512
53.465909;9.965681;5801;"Friedrich-Ebert-Gymnasium";21075;"Alter Postweg";30;"";"keine Zweigstelle";732
53.573142;10.072767;5802;"Matthias-Claudius-Gymnasium";22041;"Witthˆfftstraﬂe";8;"";"keine Zweigstelle";888
53.470099;9.864849;5803;"Gymnasium S¸derelbe";21149;"Falkenbergsweg";5;"";"keine Zweigstelle";964
53.498868;10.014853;5807;"Helmut-Schmidt-Gymnasium";21109;"Krieterstraﬂe";5;"";"keine Zweigstelle";796
53.580425;9.752499;5809;"Gymnasium Rissen";22559;"Voﬂhagen";15;"";"keine Zweigstelle";598
53.62832;10.031153;5810;"Albert-Schweitzer-Gymnasium";22337;"Struckholt";27;"";"keine Zweigstelle";1002
53.632553;10.017685;5811;"Gymnasium Alstertal";22335;"Erdkampsweg";89;"";"keine Zweigstelle";455
53.665247;10.15045;5812;"Gymnasium Buckhorn";22359;"Im Regestall";25;"";"keine Zweigstelle";1084
53.557702;9.87329;5813;"Christianeum";22605;"Otto-Ernst-Straﬂe";34;"";"keine Zweigstelle";1015
53.456653;9.943935;5814;"Heisenberg-Gymnasium";21075;"Triftstraﬂe";43;"";"keine Zweigstelle";728
53.652229;10.174189;5816;"Walddˆrfer-Gymnasium";22359;"Im Allhorn";45;"";"keine Zweigstelle";1015
53.557485;10.016212;5818;"Abendschule St. Georg";20099;"Rostocker Straﬂe";41;"";"keine Zweigstelle";557
53.558072;9.976724;5819;"Abendschule Vor dem Holstentor";20355;"Holstenglacis";6;"";"keine Zweigstelle";665
53.576337;10.04659;5820;"Hansa-Kolleg";22081;"Von-Essen-Straﬂe";82;"";"keine Zweigstelle";175
53.558072;9.976724;5821;"Studienkolleg f¸r ausl‰ndische Studierende";20355;"Holstenglacis";6;"";"keine Zweigstelle";341
53.61343;10.082805;5822;"Johannes-Brahms-Gymnasium";22179;"Hˆhnkoppelort";24;"";"keine Zweigstelle";666
53.596273;9.970411;5823;"Gymnasium Corveystraﬂe";22529;"Corveystraﬂe";6;"";"keine Zweigstelle";740
53.597401;9.89259;5824;"Goethe-Gymnasium";22547;"Rispenweg";28;"";"keine Zweigstelle";825
53.573619;9.855715;5825;"Lise-Meitner-Gymnasium";22549;"Knabeweg";3;"";"keine Zweigstelle";797
53.641755;9.961342;5829;"Gymnasium Ohmoor";22455;"Sachsenweg";76;"";"keine Zweigstelle";1248
53.550459;9.921152;5830;"Gymnasium Altona";22763;"Bleickenallee";5;"";"Zweigstelle";1016
53.563178;9.807748;5831;"Gymnasium Blankenese";22587;"Oesterleystraﬂe";27;"";"keine Zweigstelle";1014
53.48524;10.155336;5832;"Gymnasium Allermˆhe";21035;"Walter-Rothenburg-Weg";41;"";"keine Zweigstelle";676
53.600072;10.043238;5834;"Margaretha-Rothe-Gymnasium";22307;"Langenfort";5;"";"keine Zweigstelle";803
53.670175;10.032949;5835;"Gymnasium Heidberg";22417;"Fritz-Schumacher-Allee";200;"";"keine Zweigstelle";892
53.611397;10.159538;5837;"Gymnasium Oldenfelde";22143;"Birrenkovenallee";12;"";"keine Zweigstelle";866
53.507496;10.194807;5838;"Gymnasium Bornbrook";21031;"Schulenburgring";4;"";"keine Zweigstelle";939
53.431391;9.967661;5839;"Immanuel-Kant-Gymnasium";21077;"Am Pavillon";15;"";"keine Zweigstelle";592
53.438867;9.992444;5840;"Alexander-von-Humboldt-Gymnasium";21079;"Rˆnneburger Straﬂe";50;"";"keine Zweigstelle";749
53.571509;9.805547;5841;"Marion Dˆnhoff Gymnasium";22587;"Willhˆden";74;"";"keine Zweigstelle";827
53.583513;9.9627;5842;"Gymnasium Hoheluft";20253;"Christian-Fˆrster-Straﬂe";19;"";"keine Zweigstelle";317
53.585214;9.984244;5844;"Gymnasium Eppendorf";20249;"Hegestraﬂe";35;"";"keine Zweigstelle";869
53.493376;10.220123;5845;"Hansa-Gymnasium Bergedorf";21029;"Hermann-Distel-Straﬂe";25;"";"keine Zweigstelle";784
53.573196;9.966485;5846;"Gymnasium Kaiser-Friedrich-Ufer";20259;"Kaiser-Friedrich-Ufer";6;"";"keine Zweigstelle";861
53.502833;10.202366;5847;"Gymnasium Lohbr¸gge";21031;"An der Twiete";23;"";"Zweigstelle";557
53.503981;10.212133;5847;"Gymnasium Lohbr¸gge";21031;"Binnenfeldredder";5;"";"keine Zweigstelle";535
53.492154;10.228389;5848;"Luisen-Gymnasium Bergedorf";21029;"Reinbeker Weg";76;"";"keine Zweigstelle";992
53.654752;10.068325;5849;"Carl-von-Ossietzky-Gymnasium";22399;"M¸ssenredder";59;"";"keine Zweigstelle";979
53.659342;10.101415;5850;"Gymnasium Oberalster";22395;"Alsterredder";26;"";"keine Zweigstelle";843
53.554025;10.04585;5853;"Gymnasium Hamm";20537;"Ebelingplatz";8;"";"keine Zweigstelle";621
53.531992;9.874057;5856;"Gymnasium Finkenwerder";21129;"Norderschulweg";18;"";"keine Zweigstelle";451
53.608157;9.912876;5859;"Gymnasium Dˆrpsweg";22527;"Dˆrpsweg";10;"";"keine Zweigstelle";686
53.60073;9.924314;5860;"Albrecht-Thaer-Gymnasium";22527;"Wegenkamp";3;"";"keine Zweigstelle";661
53.571832;10.078702;5862;"Charlotte-Paulsen-Gymnasium";22041;"Neumann-Reichardt-Straﬂe";20;"";"keine Zweigstelle";897
53.573734;9.973136;5863;"Emilie-W¸stenfeld-Gymnasium";20144;"Bundesstraﬂe";78;"";"keine Zweigstelle";959
53.573769;9.975176;5864;"Helene Lange Gymnasium";20144;"Bogenstraﬂe";32;"";"keine Zweigstelle";905
53.555856;10.024679;5866;"Gymnasium Klosterschule";20099;"Westphalensweg";7;"";"keine Zweigstelle";972
53.56904;10.029979;5868;"Gymnasium Lerchenfeld";22081;"Lerchenfeld";10;"";"keine Zweigstelle";789
53.601342;10.146019;5869;"Gymnasium Rahlstedt";22147;"Scharbeutzer Straﬂe";36;"";"keine Zweigstelle";876
53.574571;9.996069;5872;"Wilhelm-Gymnasium";20149;"Klosterstieg";17;"";"keine Zweigstelle";687
53.554924;9.940882;5881;"Gymnasium Allee";22765;"Max-Brauer-Allee";83;"";"keine Zweigstelle";909
53.622377;9.93867;5882;"Gymnasium Bondenwald";22453;"Bondenwald";14;"";"keine Zweigstelle";903
53.612985;10.10917;5885;"Gymnasium Farmsen";22159;"Swebenhˆhe";50;"";"keine Zweigstelle";663
53.589918;10.007241;5886;"Gelehrtenschule des Johanneums";22301;"Maria-Louisen-Straﬂe";114;"";"keine Zweigstelle";823
53.554526;9.876069;5887;"Gymnasium Hochrad";22605;"Hochrad";2;"";"keine Zweigstelle";955
53.605693;9.99921;5888;"Heilwig-Gymnasium";22297;"Wilhelm-Metzger-Straﬂe";4;"";"keine Zweigstelle";795
53.623683;10.150289;5890;"Gymnasium Meiendorf";22145;"Schierenberg";60;"";"keine Zweigstelle";995
53.553799;9.883439;5891;"Gymnasium Othmarschen";22605;"Walderseestraﬂe";99;"";"keine Zweigstelle";991
53.66482;10.075138;5894;"Heinrich-Heine-Gymnasium";22399;"Harksheider Straﬂe";70;"";"keine Zweigstelle";835
53.630496;10.097985;5895;"Gymnasium Grootmoor";22175;"Am Damm";47;"";"keine Zweigstelle";1256
53.693602;10.141927;5896;"Gymnasium Ohlstedt";22397;"Sthamerstraﬂe";55;"";"keine Zweigstelle";742
53.601444;10.093882;5897;"Gymnasium Osterbek";22179;"Turnierstieg";24;"";"keine Zweigstelle";680
53.566299;10.105827;5898;"Gymnasium Marienthal";22043;"Holstenhofweg";86;"";"keine Zweigstelle";907
53.646011;10.039693;5899;"Gymnasium Hummelsb¸ttel";22339;"Hummelsb¸ttler Hauptstraﬂe";107;"";"keine Zweigstelle";690
53.551323;10.018785;7703;"Privates Gymnasium Brecht";20097;"Norderstraﬂe";163;"";"keine Zweigstelle";452
53.551323;10.018785;7703;"Privates Gymnasium Brecht";20097;"Norderstraﬂe";163;"";"Zweigstelle";23
53.675763;10.135348;7706;"Christophorus-Schule";22395;"Bergstedter Chaussee";205;"";"keine Zweigstelle";161
53.552181;9.861278;7707;"Raphael-Schule";22609;"Quellental";25;"";"keine Zweigstelle";114
53.481237;10.241444;7708;"Montessorischule Hamburg-Bergedorf";21029;"August-Bebel-Straﬂe";196;"";"keine Zweigstelle";96
53.551323;10.018785;7714;"Private Stadtteilschule Brecht";20097;"Norderstraﬂe";163;"";"keine Zweigstelle";237
53.551323;10.018785;7715;"Private Grundschule Brecht";20097;"Norderstraﬂe";163;"";"keine Zweigstelle";278
53.557588;10.016881;7801;"Stadtteilschule St. Georg";20099;"Rostocker Straﬂe";62;"";"keine Zweigstelle";135
53.566067;9.957488;7909;"Christian-Morgenstern-Schule (Grundschule)";22769;"Heinrichstraﬂe";14;"";"keine Zweigstelle";106
53.591815;10.181102;7910;"Neue Schule Hamburg";22149;"Schimmelreiterweg";11;"";"keine Zweigstelle";79
53.555043;9.932399;7911;"Bugenhagen-Schule Ottensen, Evangelische Grundschule an der Osterkirche";22765;"Bei der Osterkirche";17;"";"keine Zweigstelle";68
53.597083;10.048826;7915;"Alsterring Gymnasium";22307;"Wittenkamp";15;"";"keine Zweigstelle";105
53.56818;9.967598;7916;"monaddrei-Schule Hamburg";20357;"Sch‰ferkampsallee";27;"";"keine Zweigstelle";78
53.618437;10.027635;7917;"Zukunftsschule Alsterpalais (Grundschule)";22337;"Alsterdorfer Straﬂe";523;"";"keine Zweigstelle";92
53.547471;10.026832;7918;"Bilinguale Grundschule PHORMS Hamburg";20097;"Wendenstraﬂe";35;"";"keine Zweigstelle";181
53.605955;9.978758;7920;"Moderne Schule Hamburg (Grundschule)";22453;"Brˆdermannsweg";17;"";"keine Zweigstelle";117
53.605955;9.978758;7921;"Moderne Schule Hamburg (Gymnasium)";22453;"Brˆdermannsweg";17;"";"keine Zweigstelle";72
53.587656;10.033699;7924;"OKO Private School Talent-Schule Hamburg";22303;"Saarlandstraﬂe";30;"";"keine Zweigstelle";83
53.604651;9.958291;8003;"LycÈe FranÁais de Hambourg 'Antoine de St. ExupÈry' (Gymnasium)";22529;"Hartsprung";23;"";"keine Zweigstelle";377
53.568604;9.983829;8004;"Joseph-Carlebach-Schule (Grundschule)";20146;"Grindelhof";30;"";"keine Zweigstelle";95
53.568604;9.983829;8007;"Joseph-Carlebach-Schule (Stadtteilschule)";20146;"Grindelhof";30;"";"keine Zweigstelle";61
53.61493;10.11409;8008;"August-Hermann-Francke-Schule Farmsen";22159;"August-Krogmann-Straﬂe";115;"";"keine Zweigstelle";143
53.573096;10.028614;8012;"August-Hermann-Francke-Schule Uhlenhorst";22083;"Bachstraﬂe";13;"";"keine Zweigstelle";324
53.604651;9.958291;8013;"LycÈe FranÁais de Hambourg 'Antoine de St. ExupÈry' (Grundschule)";22529;"Hartsprung";23;"";"keine Zweigstelle";360
53.561839;9.907676;8014;"August-Hermann-Francke-Schule Bahrenfeld";22761;"H‰ndelstraﬂe";11;"";"keine Zweigstelle";90
53.628877;10.133665;8015;"August-Hermann-Francke-Schule Berne";22159;"Berner Allee";20;"";"keine Zweigstelle";109
53.48311;10.201288;8016;"August-Hermann-Francke-Schule Bergedorf";21035;"Glasbl‰serhˆfe";2;"";"keine Zweigstelle";47
53.602925;10.126533;8101;"Rudolf-Steiner-Schule Wandsbek";22159;"Rahlstedter Weg";60;"";"keine Zweigstelle";860
53.549091;9.856721;8102;"Rudolf-Steiner-Schule Nienstedten";22609;"Elbchaussee";366;"";"keine Zweigstelle";477
53.569688;10.063392;8106;"Friedrich-Robbe-Institut";22041;"B‰renallee";15;"";"keine Zweigstelle";89
53.676245;10.136042;8112;"Rudolf-Steiner-Schule Bergstedt";22395;"Bergstedter Chaussee";207;"";"keine Zweigstelle";463
53.550428;9.921778;8113;"Rudolf-Steiner-Schule Altona";22763;"Bleickenallee";1;"";"keine Zweigstelle";400
53.460973;9.889956;8114;"Rudolf-Steiner-Schule Harburg";21149;"Ehestorfer Heuweg";82;"";"keine Zweigstelle";450
53.484929;10.217051;8115;"Rudolf-Steiner-Schule Bergedorf";21029;"Am Brink";7;"";"keine Zweigstelle";416
53.465547;9.959397;8117;"Michael Schule";21075;"Woellmerstraﬂe";1;"";"keine Zweigstelle";93
53.627406;10.122948;8118;"Haus des Lernens";22159;"Lienaustraﬂe";14;"";"keine Zweigstelle";17
53.554501;10.069192;8201;"Wichern-Schule (Stadtteilschule)";22111;"Horner Weg";164;"";"keine Zweigstelle";510
53.554501;10.069192;8202;"Wichern-Schule (Gymnasium)";22111;"Horner Weg";164;"";"keine Zweigstelle";629
53.554501;10.069192;8204;"Wichern-Schule (Grundschule)";22111;"Horner Weg";164;"";"keine Zweigstelle";298
53.562403;9.854976;8301;"Jenisch-Gymnasium";22609;"Jenischstraﬂe";48;"";"keine Zweigstelle";304
53.547471;10.026832;8302;"Bilinguales Gymnasium Phorms Hamburg";20097;"Wendenstraﬂe";35;"";"keine Zweigstelle";84
53.551323;10.018785;8405;"Privates Abendgymnasium Brecht";20097;"Norderstraﬂe";163;"";"keine Zweigstelle";300
53.566067;9.957488;8501;"Christian- Morgenstern- Schule (Stadtteilschule)";22769;"Heinrichstraﬂe";14;"";"keine Zweigstelle";116
53.618437;10.027635;8502;"Zukunftsschule Alsterpalais (Stadtteilschule)";22337;"Alsterdorfer Straﬂe";523;"";"keine Zweigstelle";49
